{"苏州":[{"address":"昆山市萧林中路666号九方购物中心B1楼","citycode":"0512","latitude":"31.404358","longtude":"120.955000","name":"小杨生煎昆山九方购物中心店","telephone":"","shopId":"0001001860b4d542","tag":"","extraInfo":""},{"address":"昆山市前进西路119号1楼","citycode":"0512","latitude":"31.382364","longtude":"120.959055","name":"小杨生煎昆山长城国际店","telephone":"","shopId":"0001001860b4d596","tag":"","extraInfo":""},{"address":"苏州市长江南路泉屋B1","citycode":"0512","latitude":"31.282715","longtude":"120.548695","name":"小杨生煎苏州泉屋店","telephone":"","shopId":"0001001860b4d59e","tag":"","extraInfo":""},{"address":"江苏省苏州市工业园区中新大道西229号L325号商铺","citycode":"0512","latitude":"31.303923","longtude":"120.652493","name":"小杨生煎苏州苏州万科店","telephone":"","shopId":"0001001860b4d5ba","tag":"","extraInfo":""},{"address":"太仓市人民南路95号116#","citycode":"0512","latitude":"31.445281","longtude":"121.108426","name":"小杨生煎太仓华旭广场店","telephone":"","shopId":"0001001860b4d5c3","tag":"","extraInfo":""},{"address":"苏州市广济南路219号B1楼047号商铺","citycode":"0512","latitude":"31.309469","longtude":"120.599752","name":"小杨生煎天虹CCMall石路店","telephone":"051268666763","shopId":"00010019e759bdc7","tag":"","extraInfo":""},{"address":"江苏省苏州市工业园区九华路65号B116室","citycode":"0512","latitude":"31.327500","longtude":"120.722500","name":"小杨生煎苏州景城邻里中心店","telephone":"","shopId":"0001001c7fd860d1","tag":"","extraInfo":""},{"address":"江苏省苏州市张家港市园林与梁峰路交界杨舍老街路7幢一层136，159，160号商铺","citycode":"0512","latitude":"31.862723","longtude":"120.515503","name":"小杨生煎苏州张家港杨舍老街街店","telephone":"","shopId":"00020021255d1759","tag":"","extraInfo":""},{"address":"江苏省苏州市工业园区星洲街，星港街西苏州中心（A座）B1--80号","citycode":"0512","latitude":"31.317265","longtude":"120.677528","name":"小杨生煎苏州中心店","telephone":"","shopId":"000200294f1d1182","tag":"","extraInfo":""},{"address":"江苏省常熟市虞山镇海虞北路27号1层","citycode":"0512","latitude":"31.667127","longtude":"120.754606","name":"小杨生煎常熟常客隆店","telephone":"","shopId":"367179","tag":"","extraInfo":""},{"address":"江苏省苏州市塔园路181号龙湖狮山天街生活广场四期SZSSTJ-A-B1-53号","citycode":"0512","latitude":"31.295164","longtude":"120.552584","name":"小杨生煎苏州龙湖狮山天街店","telephone":"","shopId":"388849","tag":"","extraInfo":""},{"address":"苏州市吴中区木渎镇金枫路264号悠方购物中心B1楼B151号","citycode":"0512","latitude":"31.272983","longtude":"120.528919","name":"小杨生煎苏州悠方店","telephone":"","shopId":"429669","tag":"","extraInfo":""}],
"南通":[{"address":"江苏省南通市南通农场苏通大桥服务区西区一层","citycode":"0513","latitude":"31.867233","longtude":"120.993282","name":"小杨生煎南通苏通大桥西区店","telephone":"","shopId":"000200294f1d07bb","tag":"","extraInfo":""},{"address":"江苏省南通市工农南街（路）155号负一层B1-08商铺","citycode":"0513","latitude":"31.952761","longtude":"120.898782","name":"小杨生煎南通印象城店","telephone":"","shopId":"388839","tag":"","extraInfo":""},{"address":"南通市经济技术开发区星湖大道永旺梦乐城一层区域NO.173","citycode":"0513","latitude":"31.926040","longtude":"120.936908","name":"小杨生煎南通永旺店","telephone":"","shopId":"409459","tag":"","extraInfo":""},{"address":"南通市崇川区工农路33号圆融广场负一层B118","citycode":"0513","latitude":"32.003983","longtude":"120.883851","name":"小杨生煎南通圆融店","telephone":"","shopId":"409469","tag":"","extraInfo":""}],
"无锡":[{"address":"江苏省无锡市清扬路39号102铺位","citycode":"0510","latitude":"31.557182","longtude":"120.304037","name":"小杨生煎无锡家乐福店","telephone":"","shopId":"379819","tag":"","extraInfo":""},{"address":"江苏省无锡市滨湖区梁溪路35号[3F][3-13]号商铺","citycode":"0510","latitude":"31.561536","longtude":"120.264808","name":"小杨生煎无锡滨湖万达店","telephone":"","shopId":"390119","tag":"","extraInfo":""},{"address":"无锡市锡山经济技术开发区，团结中路3号宜家汇聚小杨生煎","citycode":"0510","latitude":"31.583458","longtude":"120.391326","name":"小杨生煎无锡宜家汇聚店","telephone":"","shopId":"433559","tag":"","extraInfo":""}],
"南京":[{"address":"南京市江宁区汤山街道圣汤大道99号奥特莱斯B区6号楼1楼","citycode":"025","latitude":"32.034103","longtude":"119.052444","name":"小杨生煎南京汤山奥特莱斯店","telephone":"","shopId":"0001001860b4d54d","tag":"","extraInfo":""},{"address":"南京市江宁区双龙大道1688号江宁金鹰购物中心B2楼","citycode":"025","latitude":"31.931327","longtude":"118.820534","name":"小杨生煎南京江宁金鹰店","telephone":"","shopId":"0001001860b4d564","tag":"","extraInfo":""},{"address":"南京市鼓楼区中山北路281号新城市虹桥中心","citycode":"025","latitude":"32.077520","longtude":"118.762270","name":"小杨生煎南京虹桥中心店","telephone":"","shopId":"0001001860b4d565","tag":"","extraInfo":""},{"address":"南京市鼓楼区凤熙路8号中海环宇城B1楼","citycode":"025","latitude":"32.045624","longtude":"118.752986","name":"小杨生煎南京中海环宇城店","telephone":"","shopId":"0001001860b4d567","tag":"","extraInfo":""},{"address":"南京市秦淮区太平南路279临太平商场1楼","citycode":"025","latitude":"32.032789","longtude":"118.792557","name":"小杨生煎南京太平商场店","telephone":"","shopId":"0001001860b4d594","tag":"","extraInfo":""},{"address":"南京市中山南路79号中央商场B1楼","citycode":"025","latitude":"32.038709","longtude":"118.785381","name":"小杨生煎南京中央商场店","telephone":"","shopId":"0001001860b4d598","tag":"","extraInfo":""},{"address":"南京市玄武区龙蟠路1号","citycode":"025","latitude":"32.090476","longtude":"118.784638","name":"小杨生煎南京商厦店","telephone":"","shopId":"0001001860b4d5a3","tag":"","extraInfo":""},{"address":"南京市草场门大街99号，（新城市广场B1楼，）","citycode":"025","latitude":"32.055944","longtude":"118.741183","name":"小杨生煎南京新城市店","telephone":"","shopId":"0001001860b4d5b5","tag":"","extraInfo":""},{"address":"江苏省南京市建康路3号B2-02号商铺","citycode":"025","latitude":"32.023160","longtude":"118.787340","name":"小杨生煎南京水平方店","telephone":"","shopId":"0001001860b4d5bf","tag":"","extraInfo":""},{"address":"南京市中山南路122号大洋百货负一层","citycode":"025","latitude":"32.038744","longtude":"118.783482","name":"小杨生煎南京大洋店","telephone":"","shopId":"0001001860b4d5c1","tag":"","extraInfo":""},{"address":"南京市江宁区禄口国际机场T2楼","citycode":"025","latitude":"31.733847","longtude":"118.871378","name":"小杨生煎南京机场店","telephone":"","shopId":"00010019e759bdc5","tag":"","extraInfo":""},{"address":"江苏省南京市秦淮区地铁3号线夫子庙上方1层105商铺","citycode":"025","latitude":"32.021152","longtude":"118.791397","name":"小杨生煎南京夫子庙店","telephone":"","shopId":"000200294f1d0a26","tag":"","extraInfo":""},{"address":"江苏省南京市雨花台软件大道109号9号楼负一层31","citycode":"025","latitude":"31.976736","longtude":"118.764033","name":"小杨生煎南京雨花店","telephone":"","shopId":"000200294f1d0dd3","tag":"","extraInfo":""},{"address":"江苏省南京市栖霞区学津路1号金鹰湖滨天地B区BF-11商铺","citycode":"025","latitude":"32.102452","longtude":"118.927069","name":"小杨生煎南京仙林金鹰","telephone":"","shopId":"000200294f1d10a2","tag":"","extraInfo":""},{"address":"江苏省南京市浦口区大桥北路58号B1002","citycode":"025","latitude":"32.139833","longtude":"118.722349","name":"小杨生煎南京印象汇店","telephone":"","shopId":"210598","tag":"","extraInfo":""},{"address":"江苏省南京市邺区江东中路98号三层333A,333B","citycode":"025","latitude":"32.032182","longtude":"118.735375","name":"小杨生煎南京建邺万达店","telephone":"","shopId":"368169","tag":"","extraInfo":""},{"address":"江苏省南京市栖霞区华电路1号B1层204号商铺","citycode":"025","latitude":"32.102139","longtude":"118.813644","name":"小杨生煎南京万谷慧店","telephone":"","shopId":"400119","tag":"","extraInfo":""},{"address":"江苏省南京市栖霞区学津路1号九霄梦天地商业B1层BF24号","citycode":"025","latitude":"32.092910","longtude":"118.916690","name":"小杨生煎南京九霄梦天地店","telephone":"","shopId":"415709","tag":"","extraInfo":""},{"address":"江苏省南京市栖霞区仙林大道181号万达茂3F3061B号商铺","citycode":"025","latitude":"32.121057","longtude":"118.985501","name":"小杨生煎南京万达茂店","telephone":"","shopId":"431189","tag":"","extraInfo":""},{"address":"南京市浦口区大桥北路48号华东茂C1幢1楼","citycode":"025","latitude":"32.139038","longtude":"118.723352","name":"小杨生煎南京江北大洋店","telephone":"","shopId":"431859","tag":"","extraInfo":""}],
"镇江":[{"address":"镇江市润州区黄山西路19号万达广场D08幢3层3037A号商铺","citycode":"0511","latitude":"32.196220","longtude":"119.435785","name":"小杨生煎镇江万达店","telephone":"","shopId":"431869","tag":"","extraInfo":""}],
"宁波":[{"address":"浙江省宁波市碶闸街132号一楼（中山东路和药行街交叉口）","citycode":"0574","latitude":"29.869398","longtude":"121.554962","name":"小杨生煎宁波天一店","telephone":"","shopId":"000200294f1d08b9","tag":"","extraInfo":""},{"address":"宁波市海曙区公园路20号1楼","citycode":"0574","latitude":"29.874459","longtude":"121.547022","name":"小杨生煎宁波鼓楼店","telephone":"","shopId":"262738","tag":"","extraInfo":""},{"address":"宁波市鄞州区四明中路999号万达广场1楼","citycode":"0574","latitude":"29.825699","longtude":"121.545456","name":"小杨生煎宁波鄞州万达店","telephone":"","shopId":"268278","tag":"","extraInfo":""},{"address":"浙江省宁波市城隍庙县学街1-15号一楼","citycode":"0574","latitude":"29.866375","longtude":"121.550411","name":"小杨生煎宁波城隍庙店","telephone":"","shopId":"379769","tag":"","extraInfo":""},{"address":"浙江省宁波市中山东路2266号宁波东部新城银泰城B1层B111号商铺","citycode":"0574","latitude":"29.855045","longtude":"121.620154","name":"小杨生煎宁波东部新城银泰店","telephone":"","shopId":"382119","tag":"","extraInfo":""}],
"嘉兴":[{"address":"浙江省海宁市启潮路199号百联奥特莱斯A区小杨生煎A216","citycode":"0573","latitude":"30.345402","longtude":"120.385222","name":"小杨生煎杭州下沙奥莱店","telephone":"","shopId":"00010019e759bdc9","tag":"","extraInfo":""},{"address":"浙江省嘉兴市南湖区中山东路666号商02室旭辉广场一层M1F\u201409商铺","citycode":"0573","latitude":"30.760645","longtude":"120.746887","name":"小杨生煎嘉兴旭辉店","telephone":"","shopId":"417419","tag":"","extraInfo":""}],
"杭州":[{"address":"浙江省杭州市延安路292号美食广场B2楼","citycode":"0571","latitude":"30.254683","longtude":"120.164607","name":"小杨生煎杭州工联店","telephone":"","shopId":"0001001860b4d537","tag":"","extraInfo":""},{"address":"杭州市下沙经济技术开发区金沙大道560号龙湖.金沙天街B1楼","citycode":"0571","latitude":"30.312115","longtude":"120.329212","name":"小杨生煎杭州金沙天街店","telephone":"","shopId":"0001001860b4d550","tag":"","extraInfo":""},{"address":"杭州西湖区文一路296号汇和城1楼107号","citycode":"0571","latitude":"30.299167","longtude":"120.107792","name":"小杨生煎杭州文一路店","telephone":"","shopId":"0001001860b4d554","tag":"","extraInfo":""},{"address":"杭州市延安路98号B1楼","citycode":"0571","latitude":"30.243551","longtude":"120.165502","name":"小杨生煎杭州西湖银泰店","telephone":"","shopId":"0001001860b4d58c","tag":"","extraInfo":""},{"address":"杭州市北山路湖口5号","citycode":"0571","latitude":"30.251427","longtude":"120.134755","name":"小杨生煎杭州岳王庙店","telephone":"","shopId":"0001001860b4d5d1","tag":"","extraInfo":""},{"address":"杭州市滨江区江汉路1515号滨江龙湖天街B1-08小杨生煎","citycode":"0571","latitude":"30.201000","longtude":"120.204798","name":"小杨生煎杭州滨江龙湖店","telephone":"","shopId":"000200294f1d0e38","tag":"","extraInfo":""},{"address":"浙江省杭州市西湖区余杭塘路与崇仁路交叉路口西溪银泰城地下一层商铺【037】小杨生煎","citycode":"0571","latitude":"30.294088","longtude":"120.077172","name":"小杨生煎杭州西溪银泰店","telephone":"","shopId":"000200294f1d1101","tag":"","extraInfo":""},{"address":"浙江省杭州市滨江区浦沿街道3867号 滨江宝龙城3幢401-29室","citycode":"0571","latitude":"30.187962","longtude":"120.167793","name":"小杨生煎杭州滨江宝龙店","telephone":"","shopId":"360699","tag":"","extraInfo":""},{"address":"浙江省杭州市萧山区市心中路268号杭州汇德隆银隆世贸中心地下一层商铺B-132小杨生煎","citycode":"0571","latitude":"30.171586","longtude":"120.268244","name":"小杨生煎杭州萧山银隆店","telephone":"","shopId":"398309","tag":"","extraInfo":""},{"address":"杭州市萧山区T2国际航站楼A-A-1-C小杨生煎","citycode":"0571","latitude":"30.183806","longtude":"120.264253","name":"小杨生煎杭州萧山机场店","telephone":"","shopId":"428909","tag":"","extraInfo":""}],
"常州":[{"address":"常州市钟楼区延陵西路150号1楼","citycode":"0519","latitude":"31.779272","longtude":"119.955909","name":"小杨生煎常州延陵西路店","telephone":"","shopId":"247238","tag":"","extraInfo":""},{"address":"常州市武进区花园街33号常州路劲又一城1楼","citycode":"0519","latitude":"31.705001","longtude":"119.950358","name":"小杨生煎常州又一城店","telephone":"","shopId":"247248","tag":"","extraInfo":""},{"address":"常州市兰陵北路999号九洲新世界广场B1楼","citycode":"0519","latitude":"31.765724","longtude":"119.953086","name":"小杨生煎常州九洲新世界店","telephone":"","shopId":"262788","tag":"","extraInfo":""},{"address":"江苏省常州市新北区通江路黄河路江南环球港B1-B1053小杨生煎","citycode":"0519","latitude":"31.779411","longtude":"119.955552","name":"小杨生煎常州江南环球港店","telephone":"","shopId":"342878","tag":"","extraInfo":""},{"address":"江苏省常州市新北区河海东路60号迪诺水镇15号楼117，118","citycode":"0519","latitude":"31.821832","longtude":"120.003490","name":"小杨生煎常州迪诺水镇店","telephone":"","shopId":"368429","tag":"","extraInfo":""},{"address":"江苏省常州市武进区湖塘镇鸣新路银谷华庭1幢201号2层11073-2-1号商铺小杨生煎","citycode":"0519","latitude":"31.674953","longtude":"119.936754","name":"小杨生煎常州银谷广场店","telephone":"","shopId":"410309","tag":"","extraInfo":""},{"address":"溧阳市溧城镇南大街199号万达广场四层4025号商铺","citycode":"0519","latitude":"31.398047","longtude":"119.494370","name":"小杨生煎溧阳万达店","telephone":"","shopId":"433859","tag":"","extraInfo":""}],
"扬州":[{"address":"江苏扬州市邗江区邗江中路302号扬州万达广场4F层4055A号","citycode":"0514","latitude":"32.368307","longtude":"119.399044","name":"小杨生煎扬州万达店","telephone":"","shopId":"406859","tag":"","extraInfo":""}],
"上海":[{"address":"上海市松江区文汇路258号2区-2号","citycode":"021","latitude":"31.049576","longtude":"121.215511","name":"小杨生煎上海松江大学城店","telephone":"","shopId":"0001001860b4d52e","tag":"","extraInfo":""},{"address":"上海市宝山区大华路518号大华乐购1楼","citycode":"021","latitude":"31.271729","longtude":"121.414171","name":"小杨生煎上海大华乐购店","telephone":"","shopId":"0001001860b4d530","tag":"","extraInfo":""},{"address":"上海市闵行区鹤庆路900号碧江广场2号楼1楼","citycode":"021","latitude":"31.006480","longtude":"121.404914","name":"小杨生煎上海碧江广场店","telephone":"","shopId":"0001001860b4d532","tag":"","extraInfo":""},{"address":"上海市闸北区江场路1212号上海协信星光广场B1楼","citycode":"021","latitude":"31.298510","longtude":"121.460420","name":"小杨生煎上海协信广场店","telephone":"","shopId":"0001001860b4d533","tag":"","extraInfo":""},{"address":"上海市浦东新区沈梅东路239号海印哈邻里1楼","citycode":"021","latitude":"31.093004","longtude":"121.587356","name":"小杨生煎上海周浦哈邻里店","telephone":"","shopId":"0001001860b4d535","tag":"","extraInfo":""},{"address":"上海市长宁区天山路889号百盛优客城市广场B1楼","citycode":"021","latitude":"31.210850","longtude":"121.402807","name":"小杨生煎上海天山百盛优客店","telephone":"","shopId":"0001001860b4d539","tag":"","extraInfo":""},{"address":"上海市宝山区杨南南路2211号宝山宝龙城市广场3楼","citycode":"021","latitude":"31.388177","longtude":"121.358303","name":"小杨生煎宝山宝龙店","telephone":"","shopId":"0001001860b4d53d","tag":"","extraInfo":""},{"address":"上海市黄浦区陆家浜路1100号新邻生活站B1楼","citycode":"021","latitude":"31.211830","longtude":"121.487730","name":"小杨生煎上海新邻生活站店","telephone":"","shopId":"0001001860b4d53f","tag":"","extraInfo":""},{"address":"上海市奉贤区航南公路5639号奉贤宝龙城市广场2号楼B1楼","citycode":"021","latitude":"30.929358","longtude":"121.462608","name":"小杨生煎上海奉贤宝龙店","telephone":"","shopId":"0001001860b4d540","tag":"","extraInfo":""},{"address":"杨浦区中原路102号欧尚超市1楼","citycode":"021","latitude":"31.313979","longtude":"121.533062","name":"小杨生煎上海中原欧尚店","telephone":"","shopId":"0001001860b4d544","tag":"","extraInfo":""},{"address":"嘉定区博乐路99号欧尚超市1楼","citycode":"021","latitude":"31.383492","longtude":"121.254049","name":"小杨生煎上海嘉定博乐路欧尚店","telephone":"","shopId":"0001001860b4d546","tag":"","extraInfo":""},{"address":"金山区蒙山北路399号欧尚超市1楼","citycode":"021","latitude":"30.746065","longtude":"121.335510","name":"小杨生煎上海金山欧尚店","telephone":"","shopId":"0001001860b4d548","tag":"","extraInfo":""},{"address":"浦东新区夏碧路118号番喜町118一楼","citycode":"021","latitude":"31.338689","longtude":"121.588124","name":"小杨生煎上海夏碧路店","telephone":"","shopId":"0001001860b4d54a","tag":"","extraInfo":""},{"address":"上海市闵行区纪翟路256弄一楼","citycode":"021","latitude":"31.208600","longtude":"121.292030","name":"小杨生煎上海华漕旭辉店","telephone":"","shopId":"0001001860b4d54b","tag":"","extraInfo":""},{"address":"上海市张扬北路801号文峰广场一楼","citycode":"021","latitude":"31.271514","longtude":"121.587281","name":"小杨生煎上海浦东文峰广场店","telephone":"","shopId":"0001001860b4d552","tag":"","extraInfo":""},{"address":"上海市杨浦区隆昌路588号七巧国1楼","citycode":"021","latitude":"31.275162","longtude":"121.543310","name":"小杨生煎上海七巧国店","telephone":"","shopId":"0001001860b4d556","tag":"","extraInfo":""},{"address":"上海市宝山区路翔路111弄正大乐城B1楼","citycode":"021","latitude":"31.344342","longtude":"121.372146","name":"小杨生煎上海顾村正大乐城店","telephone":"","shopId":"0001001860b4d557","tag":"","extraInfo":""},{"address":"上海市长宁区天山路900号汇金百货B1楼","citycode":"021","latitude":"31.211526","longtude":"121.405127","name":"小杨生煎上海天山汇金百货店","telephone":"","shopId":"0001001860b4d559","tag":"","extraInfo":""},{"address":"上海市宝山区水产路1234号世纪联华1楼","citycode":"021","latitude":"31.382324","longtude":"121.489219","name":"小杨生煎上海水产路世纪联华店","telephone":"","shopId":"0001001860b4d55b","tag":"","extraInfo":""},{"address":"上海市宝山区共江路1208号家乐福1楼","citycode":"021","latitude":"31.326339","longtude":"121.444830","name":"小杨生煎上海宝山家乐福店","telephone":"","shopId":"0001001860b4d55d","tag":"","extraInfo":""},{"address":"上海市徐汇区钦州北路218号田尚坊1楼","citycode":"021","latitude":"31.180949","longtude":"121.419880","name":"小杨生煎上海田尚坊店","telephone":"","shopId":"0001001860b4d560","tag":"","extraInfo":""},{"address":"上海市金山区龙皓路1088号金山万达4楼","citycode":"021","latitude":"30.754671","longtude":"121.338307","name":"小杨生煎上海金山万达店","telephone":"","shopId":"0001001860b4d562","tag":"","extraInfo":""},{"address":"上海市宝山区长江西路2211号易买得超市小杨生煎","citycode":"021","latitude":"31.331578","longtude":"121.439926","name":"小杨生煎上海宝山易买得店","telephone":"","shopId":"0001001860b4d569","tag":"","extraInfo":""},{"address":"上海市嘉定区城中路195-6号","citycode":"021","latitude":"31.386750","longtude":"121.245375","name":"小杨生煎上海嘉定城中路店","telephone":"","shopId":"0001001860b4d56b","tag":"","extraInfo":""},{"address":"上海市杨浦区靖宇东路270号乐味坊1楼","citycode":"021","latitude":"31.288951","longtude":"121.535795","name":"小杨生煎上海乐味坊店","telephone":"","shopId":"0001001860b4d585","tag":"","extraInfo":""},{"address":"上海市平凉路1399号B1楼","citycode":"021","latitude":"31.264514","longtude":"121.537796","name":"小杨生煎上海滨江百联店","telephone":"","shopId":"0001001860b4d589","tag":"","extraInfo":""},{"address":"浦东新区沪南路2420号1楼东郊百联","citycode":"021","latitude":"31.153594","longtude":"121.563643","name":"小杨生煎上海东郊百联店","telephone":"","shopId":"0001001860b4d58a","tag":"","extraInfo":""},{"address":"上海市嘉定区南翔镇宝翔路801号B1楼","citycode":"021","latitude":"31.311398","longtude":"121.316870","name":"小杨生煎上海南翔五彩城店","telephone":"","shopId":"0001001860b4d58e","tag":"","extraInfo":""},{"address":"上海市长宁区天山西路153号","citycode":"021","latitude":"31.216429","longtude":"121.374093","name":"小杨生煎上海宜嘉坊店","telephone":"","shopId":"0001001860b4d590","tag":"","extraInfo":""},{"address":"上海市浦电路357号(东方路浦电路路口世纪联华超市B1)","citycode":"021","latitude":"31.217316","longtude":"121.516342","name":"小杨生煎上海浦电路世纪联华店","telephone":"","shopId":"0001001860b4d592","tag":"","extraInfo":""},{"address":"上海市闸北区中华新路567号","citycode":"021","latitude":"31.253706","longtude":"121.464231","name":"小杨生煎上海王子百货店","telephone":"","shopId":"0001001860b4d59a","tag":"","extraInfo":""},{"address":"上海市浦东新区东靖路1881号万嘉商业广场1层","citycode":"021","latitude":"31.293525","longtude":"121.610749","name":"小杨生煎上海高行食品一店","telephone":"","shopId":"0001001860b4d5a0","tag":"","extraInfo":""},{"address":"黄浦区瞿溪路199号A6-105","citycode":"021","latitude":"31.199050","longtude":"121.474688","name":"小杨生煎上海汇暻生活广场店","telephone":"","shopId":"0001001860b4d5a5","tag":"","extraInfo":""},{"address":"松江区广富林路658弄3楼","citycode":"021","latitude":"31.058294","longtude":"121.242708","name":"小杨生煎上海松江万达店","telephone":"","shopId":"0001001860b4d5a7","tag":"","extraInfo":""},{"address":"巨峰路1058弄2号，晨达美食广场1楼","citycode":"021","latitude":"31.280207","longtude":"121.594330","name":"小杨生煎上海晨达广场店","telephone":"","shopId":"0001001860b4d5ac","tag":"","extraInfo":""},{"address":"上海市黄浦区河南南路489号，香港名都一楼132、133号商铺","citycode":"021","latitude":"31.222890","longtude":"121.489903","name":"小杨生煎上海香港名都店","telephone":"","shopId":"0001001860b4d5ae","tag":"","extraInfo":""},{"address":"浦东新区龙阳路2000号（龙阳广场)L2-9A号","citycode":"021","latitude":"31.203257","longtude":"121.557119","name":"小杨生煎上海龙阳店","telephone":"","shopId":"0001001860b4d5b1","tag":"","extraInfo":""},{"address":"上海宝山区牡丹江路318号D楼D109单元","citycode":"021","latitude":"31.380966","longtude":"121.494540","name":"小杨生煎上海诺亚新天地店","telephone":"","shopId":"0001001860b4d5bc","tag":"","extraInfo":""},{"address":"闵行区虹井路288号乐虹坊1楼","citycode":"021","latitude":"31.176762","longtude":"121.371713","name":"小杨生煎上海乐虹坊店","telephone":"","shopId":"0001001860b4d5c5","tag":"","extraInfo":""},{"address":"松江区新松江路1001号（地中海广场1楼）","citycode":"021","latitude":"31.038038","longtude":"121.220491","name":"小杨生煎上海地中海店","telephone":"","shopId":"0001001860b4d5c8","tag":"","extraInfo":""},{"address":"西江湾路388号（虹口龙之梦广场B2楼）","citycode":"021","latitude":"31.270919","longtude":"121.477947","name":"小杨生煎上海虹口龙之梦店","telephone":"","shopId":"0001001860b4d5ca","tag":"","extraInfo":""},{"address":"上海市中山北路3300号（月星国际广场B2楼）","citycode":"021","latitude":"31.233361","longtude":"121.412232","name":"小杨生煎上海月星环球港店","telephone":"","shopId":"0001001860b4d5cc","tag":"","extraInfo":""},{"address":"崇明县城桥镇八一路206号012号商铺","citycode":"021","latitude":"31.620869","longtude":"121.396061","name":"小杨生煎上海崇明八一广场店","telephone":"","shopId":"0001001860b4d5d3","tag":"","extraInfo":""},{"address":"嘉定区南翔镇佳通路31弄1号楼3层02室","citycode":"021","latitude":"31.296126","longtude":"121.323091","name":"小杨生煎上海南翔祥腾店","telephone":"","shopId":"0001001860b4d5d6","tag":"","extraInfo":""},{"address":"太仓市上海东路188号太仓万达广场室内步行街三层3032号","citycode":"021","latitude":"31.240273","longtude":"121.324069","name":"小杨生煎太仓万达店","telephone":"","shopId":"0001001860b4d5da","tag":"","extraInfo":""},{"address":"浦东新区沪南路3449弄周浦万达广场310号商铺","citycode":"021","latitude":"31.114795","longtude":"121.569320","name":"小杨生煎上海周浦万达店","telephone":"","shopId":"0001001860b4d5dd","tag":"","extraInfo":""},{"address":"嘉定区安亭镇曹安东路5575号AT-103商铺","citycode":"021","latitude":"31.270999","longtude":"121.229869","name":"小杨生煎上海安亭店","telephone":"","shopId":"0001001860b4d5df","tag":"","extraInfo":""},{"address":"松江区松汇中路568号B座106b单元","citycode":"021","latitude":"31.005646","longtude":"121.235620","name":"小杨生煎上海乐颂坊店","telephone":"","shopId":"0001001860b4d5e1","tag":"","extraInfo":""},{"address":"浦东新区陆家嘴环路1406-1408号","citycode":"021","latitude":"31.239933","longtude":"121.501199","name":"小杨生煎上海东方明珠店","telephone":"","shopId":"0001001860b4d5e6","tag":"","extraInfo":""},{"address":"金山区卫清西路188号金山百联3楼（近松卫南路）","citycode":"021","latitude":"30.730796","longtude":"121.347948","name":"小杨生煎上海金山百联店","telephone":"","shopId":"0001001860b4d5e8","tag":"","extraInfo":""},{"address":"徐汇区天钥桥路93号1A","citycode":"021","latitude":"31.193005","longtude":"121.441758","name":"小杨生煎上海天钥桥路店","telephone":"","shopId":"0001001860b4d5eb","tag":"","extraInfo":""},{"address":"宝山区蕴川路1557号","citycode":"021","latitude":"31.366630","longtude":"121.432950","name":"小杨生煎上海蕴川路莲花店","telephone":"","shopId":"0001001860b4d5ed","tag":"","extraInfo":""},{"address":"宝山区一二八纪念路908弄1号417室宝山万达4楼","citycode":"021","latitude":"31.323760","longtude":"121.447052","name":"小杨生煎上海宝山万达店","telephone":"","shopId":"0001001860b4d5ef","tag":"","extraInfo":""},{"address":"徐汇区宜山路455号B2光启城B2楼","citycode":"021","latitude":"31.183983","longtude":"121.428379","name":"小杨生煎上海光启城店","telephone":"","shopId":"0001001860b4d5f1","tag":"","extraInfo":""},{"address":"闵行区古方路56号B1莲花国际广场B1楼","citycode":"021","latitude":"31.132880","longtude":"121.402570","name":"小杨生煎上海莲花国际店","telephone":"","shopId":"0001001860b4d5f4","tag":"","extraInfo":""},{"address":"徐汇区沪闵路9001-3号北馆地下1层C区","citycode":"021","latitude":"31.154536","longtude":"121.428201","name":"小杨生煎上海南站店","telephone":"","shopId":"0001001860b4d5f6","tag":"","extraInfo":""},{"address":"浦东新区昌里路218号（近上南路）","citycode":"021","latitude":"31.174152","longtude":"121.494757","name":"小杨生煎上海昌里路店","telephone":"","shopId":"0001001860b4d5f8","tag":"","extraInfo":""},{"address":"青浦区青浦镇公园路666弄7号","citycode":"021","latitude":"31.148566","longtude":"121.112969","name":"小杨生煎上海桥梓湾店","telephone":"","shopId":"0001001860b4d5fb","tag":"","extraInfo":""},{"address":"闵行区莘庄都市路5001号仲盛世界广场B1楼","citycode":"021","latitude":"31.107263","longtude":"121.386886","name":"小杨生煎上海仲盛店","telephone":"","shopId":"0001001860b4d5fd","tag":"","extraInfo":""},{"address":"青浦区沪青平公路2888号奥特莱斯广场C区4楼","citycode":"021","latitude":"31.156675","longtude":"121.228150","name":"小杨生煎上海奥特莱斯店","telephone":"","shopId":"0001001860b4d5ff","tag":"","extraInfo":""},{"address":"黄浦区徐家汇路618号日月光广场B2楼","citycode":"021","latitude":"31.207094","longtude":"121.467670","name":"小杨生煎上海日月光店","telephone":"","shopId":"0001001860b4d602","tag":"","extraInfo":""},{"address":"长宁区愚园路816号","citycode":"021","latitude":"31.220223","longtude":"121.433247","name":"小杨生煎上海愚园路店","telephone":"","shopId":"0001001860b4d604","tag":"","extraInfo":""},{"address":"上海市普陀区武宁路101号我格广场B1楼（近普雄路）","citycode":"021","latitude":"31.237925","longtude":"121.423079","name":"小杨生煎上海我格广场店","telephone":"021-52081981","shopId":"0001001860b4d606","tag":"","extraInfo":""},{"address":"闵行区沪闵路6088号B2楼","citycode":"021","latitude":"31.107860","longtude":"121.378313","name":"小杨生煎上海莘庄龙之梦店","telephone":"","shopId":"0001001860b4d608","tag":"","extraInfo":""},{"address":"嘉定区金沙江西路1051弄1号江桥万达广场3楼","citycode":"021","latitude":"31.239662","longtude":"121.323762","name":"小杨生煎上海江桥万达店","telephone":"","shopId":"0001001860b4d60b","tag":"","extraInfo":""},{"address":"浦东新区浦建路118号巴黎春天B1楼（近四号线塘桥站）","citycode":"021","latitude":"31.208766","longtude":"121.519581","name":"小杨生煎上海浦建巴春店","telephone":"","shopId":"0001001860b4d60d","tag":"","extraInfo":""},{"address":"长宁区长宁路1018号龙之梦购物中心B2楼（近凯旋路）","citycode":"021","latitude":"31.219128","longtude":"121.416642","name":"小杨生煎上海中山龙之梦店","telephone":"","shopId":"0001001860b4d60f","tag":"","extraInfo":""},{"address":"上海市普陀区长寿路401号亚新生活广场B1楼（近常德路）","citycode":"021","latitude":"31.239517","longtude":"121.437329","name":"小杨生煎上海亚新店","telephone":"021-62995967","shopId":"0001001860b4d612","tag":"","extraInfo":""},{"address":"浦东新区成山路1993号巴黎春天B1楼（近锦尊路）","citycode":"021","latitude":"31.178890","longtude":"121.535540","name":"小杨生煎上海成山巴春店","telephone":"","shopId":"0001001860b4d614","tag":"","extraInfo":""},{"address":"徐汇区天钥桥路580号星游城B1楼（近斜土路）","citycode":"021","latitude":"31.185135","longtude":"121.442362","name":"小杨生煎上海星游城店","telephone":"","shopId":"0001001860b4d616","tag":"","extraInfo":""},{"address":"长宁区仙霞西路88号西郊百联2楼（近哈密路）","citycode":"021","latitude":"31.209116","longtude":"121.370233","name":"小杨生煎上海西郊百联店","telephone":"","shopId":"0001001860b4d61b","tag":"","extraInfo":""},{"address":"上海市黄浦区浙江中路486号（近牛庄路）","citycode":"021","latitude":"31.237481","longtude":"121.477236","name":"小杨生煎上海浙江中路店","telephone":"","shopId":"0001001860b4d61d","tag":"","extraInfo":""},{"address":"静安区吴江路269号湟普汇2楼（近泰兴路）","citycode":"021","latitude":"31.229077","longtude":"121.459291","name":"小杨生煎上海吴江路店","telephone":"","shopId":"0001001860b4d620","tag":"","extraInfo":""},{"address":"黄浦区宁波路178号","citycode":"021","latitude":"31.239250","longtude":"121.483754","name":"小杨生煎上海宁波路店","telephone":"","shopId":"0001001860b4d622","tag":"","extraInfo":""},{"address":"黄浦区黄河路97号","citycode":"021","latitude":"31.234621","longtude":"121.470577","name":"小杨生煎上海黄河路店","telephone":"","shopId":"0001001860b4d624","tag":"","extraInfo":""},{"address":"上海市静安区陕西北路678号（近武定路）","citycode":"021","latitude":"31.234195","longtude":"121.450767","name":"小杨生煎上海陕西北路店","telephone":"","shopId":"0001001860b4d627","tag":"","extraInfo":""},{"address":"黄浦区淮海中路939-947号巴黎春天B1楼","citycode":"021","latitude":"31.216277","longtude":"121.459598","name":"小杨生煎上海淮海巴春店","telephone":"","shopId":"00010019e759bdb5","tag":"","extraInfo":""},{"address":"上海市杨浦区黄兴路2228号合生汇B2楼","citycode":"021","latitude":"31.300700","longtude":"121.518740","name":"小杨生煎上海五角场合生汇店","telephone":"","shopId":"00010019e759bdb9","tag":"","extraInfo":""},{"address":"上海市闵行区江月路1850弄6号地下1层05-D01室","citycode":"021","latitude":"31.083832","longtude":"121.511824","name":"小杨生煎上海浦江生活广场店","telephone":"","shopId":"00010019e759bdba","tag":"","extraInfo":""},{"address":"上海市宝山区宝杨路699号","citycode":"021","latitude":"31.399136","longtude":"121.486740","name":"小杨生煎上海宝乐汇店","telephone":"","shopId":"00010019e759bdbc","tag":"","extraInfo":""},{"address":"上海市闵行区七莘路3155号乐购","citycode":"021","latitude":"31.156831","longtude":"121.346116","name":"小杨生煎上海七宝乐购店","telephone":"","shopId":"00010019e759bdbe","tag":"","extraInfo":""},{"address":"上海市嘉定区仓场东路378号1层","citycode":"021","latitude":"31.385136","longtude":"121.280782","name":"小杨生煎上海嘉定百联店","telephone":"","shopId":"00010019e759bdc0","tag":"","extraInfo":""},{"address":"上海市南桥镇南中路80号大都惠美食广场B1楼","citycode":"021","latitude":"30.913894","longtude":"121.459359","name":"小杨生煎上海南桥大都惠店","telephone":"","shopId":"00010019e759bdc1","tag":"","extraInfo":""},{"address":"上海市水城南路268号古北家乐福小杨生煎店","citycode":"021","latitude":"31.197386","longtude":"121.391904","name":"小杨生煎上海古北家乐福店","telephone":"","shopId":"0001001acebd2713","tag":"","extraInfo":""},{"address":"上海市金高路1757号","citycode":"021","latitude":"31.269181","longtude":"121.610099","name":"小杨生煎上海浦东佳邻坊店","telephone":"","shopId":"0001001acebd2715","tag":"","extraInfo":""},{"address":"上海市宝山区长江南路579号一楼市场D5号","citycode":"021","latitude":"31.336125","longtude":"121.482750","name":"小杨生煎上海淞南大昌店","telephone":"","shopId":"0001001bcf3f405a","tag":"","extraInfo":""},{"address":"上海市漕宝路3299号七宝宝龙城市广场B1层B1-79/80号商铺","citycode":"021","latitude":"31.157543","longtude":"121.356624","name":"小杨生煎上海七宝宝龙店","telephone":"","shopId":"0001001c7fd860ca","tag":"","extraInfo":""},{"address":"上海市川沙路4825号现代广场B1","citycode":"021","latitude":"31.195173","longtude":"121.697747","name":"小杨生煎上海川沙现代广场店","telephone":"","shopId":"0001001c7fd860cd","tag":"","extraInfo":""},{"address":"上海市漕宝路3366号B1层104","citycode":"021","latitude":"31.164797","longtude":"121.414346","name":"小杨生煎上海七宝万科店","telephone":"","shopId":"0001001c7fd860cf","tag":"","extraInfo":""},{"address":"上海市陆家嘴西路168号正大广场购物中心B2 层租赁区域编号为1 A\u201302","citycode":"021","latitude":"31.236834","longtude":"121.499250","name":"小杨生煎上海正大广场店","telephone":"","shopId":"00020021255d171f","tag":"","extraInfo":""},{"address":"上海市尚义路剑川路口吴泾宝龙广场金街一楼114-a-2 商铺","citycode":"021","latitude":"31.038744","longtude":"121.451622","name":"小杨生煎上海吴泾宝龙店","telephone":"","shopId":"00020021255d1741","tag":"","extraInfo":""},{"address":"上海市宝山区真华路888号巴黎春天B1楼（近大华一路）","citycode":"021","latitude":"31.270591","longtude":"121.411878","name":"小杨生煎上海大华巴春店","telephone":"","shopId":"000200294f1d0702","tag":"","extraInfo":""},{"address":"上海市杨浦区控江路2072号旭辉海上国际B1-17","citycode":"021","latitude":"31.273224","longtude":"121.510238","name":"小杨生煎上海杨浦旭辉店","telephone":"","shopId":"000200294f1d0831","tag":"","extraInfo":""},{"address":"上海市浦东新区妙境路1118号1F","citycode":"021","latitude":"31.180930","longtude":"121.692333","name":"小杨生煎上海川沙家乐福店","telephone":"","shopId":"000200294f1d093b","tag":"","extraInfo":""},{"address":"上海市普陀区金沙江路1685号巴黎春天1楼113-2室","citycode":"021","latitude":"31.231862","longtude":"121.378090","name":"小杨生煎上海118广场店","telephone":"","shopId":"000200294f1d09b1","tag":"","extraInfo":""},{"address":"上海市青浦区盈港东路158号2层","citycode":"021","latitude":"31.186396","longtude":"121.304391","name":"小杨生煎上海国家会展中心店","telephone":"","shopId":"000200294f1d0ac5","tag":"","extraInfo":""},{"address":"上海市浦东新区川沙路5398号B1层G61-B1-1-007号铺位","citycode":"021","latitude":"31.185450","longtude":"121.698270","name":"小杨生煎上海川沙百联店","telephone":"","shopId":"000200294f1d0b1c","tag":"","extraInfo":""},{"address":"上海市黄浦区南京东路299号宏伊国际广场B1层B-107A","citycode":"021","latitude":"31.236817","longtude":"121.484497","name":"小杨生煎上海宏伊广场店","telephone":"","shopId":"000200294f1d0b91","tag":"","extraInfo":""},{"address":"上海市虹口区虹瑞路188号地下一层35室F1一F2","citycode":"021","latitude":"31.264600","longtude":"121.505133","name":"小杨生煎上海月亮湾店","telephone":"","shopId":"000200294f1d0be0","tag":"","extraInfo":""},{"address":"上海市静安区民立路63号","citycode":"021","latitude":"31.246865","longtude":"121.456078","name":"小杨生煎上海环龙商厦店","telephone":"","shopId":"000200294f1d0c57","tag":"","extraInfo":""},{"address":"上海市闵行区七莘路1507号地下一层B1-k12、B1-k17号铺位","citycode":"021","latitude":"31.130899","longtude":"121.363777","name":"小杨生煎上海怡丰城店","telephone":"","shopId":"000200294f1d0cde","tag":"","extraInfo":""},{"address":"上海市浦东新区张杨路3918号1楼04\u20131商铺","citycode":"021","latitude":"31.255556","longtude":"121.581616","name":"小杨生煎上海久金广场店","telephone":"","shopId":"000200294f1d0d65","tag":"","extraInfo":""},{"address":"上海市一层闵行区兴梅路1213号","citycode":"021","latitude":"31.105525","longtude":"121.411550","name":"小杨生煎上海尚乐坊店","telephone":"","shopId":"000200294f1d0eb0","tag":"","extraInfo":""},{"address":"上海市普陀区大渡河路178号地下一层01-41","citycode":"021","latitude":"31.222542","longtude":"121.395222","name":"小杨生煎上海长风大悦城店","telephone":"","shopId":"000200294f1d0f1c","tag":"","extraInfo":""},{"address":"上海市黄浦区福州路567号1楼东北测-B","citycode":"021","latitude":"31.232792","longtude":"121.479845","name":"小杨生煎上海福州路店","telephone":"","shopId":"000200294f1d0fc6","tag":"","extraInfo":""},{"address":"上海市浦东新区茉莉路225弄1、3号","citycode":"021","latitude":"30.894892","longtude":"121.906250","name":"小杨生煎上海港城新天地店","telephone":"","shopId":"000200294f1d1035","tag":"","extraInfo":""},{"address":"上海市浦东新区祝桥镇卓耀路58弄佛罗伦萨小镇F23号商铺","citycode":"021","latitude":"31.196739","longtude":"121.764244","name":"小杨生煎上海佛罗伦萨小镇店","telephone":"","shopId":"359279","tag":"","extraInfo":""},{"address":"上海市青浦区公园东路1289弄青浦富绅中心1F7号8号","citycode":"021","latitude":"31.152656","longtude":"121.137256","name":"小杨生煎上海青浦富绅国际店","telephone":"","shopId":"360689","tag":"","extraInfo":""},{"address":"上海市浦东新区北艾路1798-1800号","citycode":"021","latitude":"31.182765","longtude":"121.534466","name":"小杨生煎上海北艾路店","telephone":"","shopId":"360709","tag":"","extraInfo":""},{"address":"上海市普陀区铜川路26-（35）号地下一层","citycode":"021","latitude":"31.256494","longtude":"121.421194","name":"小杨生煎上海品尊国际店","telephone":"","shopId":"368419","tag":"","extraInfo":""},{"address":"上海市福山路312号b2楼01单位","citycode":"021","latitude":"31.233666","longtude":"121.527012","name":"小杨生煎上海世纪大都汇店","telephone":"","shopId":"369959","tag":"","extraInfo":""},{"address":"上海市静安区南京西路1788号地下一层","citycode":"021","latitude":"31.222684","longtude":"121.443017","name":"小杨生煎上海1788店","telephone":"","shopId":"370249","tag":"","extraInfo":""},{"address":"上海市杨浦区大连路588号(唐山路1018号)宝地广场地下一层","citycode":"021","latitude":"31.261192","longtude":"121.511630","name":"小杨生煎上海宝地广场店","telephone":"","shopId":"371919","tag":"","extraInfo":""},{"address":"上海市闵行区七莘路3655号凯德七宝购物广场01层60号","citycode":"021","latitude":"31.164756","longtude":"121.340509","name":"小杨生煎上海七宝凯德店","telephone":"","shopId":"378229","tag":"","extraInfo":""},{"address":"上海市长宁路1123号长宁来福士广场（E）B1层K22","citycode":"021","latitude":"31.218422","longtude":"121.402682","name":"小杨生煎上海长宁来福士店","telephone":"","shopId":"378969","tag":"","extraInfo":""},{"address":"上海市宝安公路3386号1号楼地下层10-2室","citycode":"021","latitude":"31.330550","longtude":"121.280150","name":"小杨生煎上海大融城店","telephone":"","shopId":"380539","tag":"","extraInfo":""},{"address":"上海市朱泾镇公园路300号","citycode":"021","latitude":"30.893981","longtude":"121.161528","name":"小杨生煎上海朱泾店","telephone":"","shopId":"380919","tag":"","extraInfo":""},{"address":"上海市闵行区永德路132号农工商超市第四十三分店租赁区域编号A11、A12、A13","citycode":"021","latitude":"31.043045","longtude":"121.464473","name":"小杨生煎上海吴泾农工商店","telephone":"","shopId":"382039","tag":"","extraInfo":""},{"address":"上海市徐汇区桂林路402号74幢1层0302F1F0008-B号铺位","citycode":"021","latitude":"31.170512","longtude":"121.417417","name":"小杨生煎上海田林沃尔玛店","telephone":"","shopId":"382049","tag":"","extraInfo":""},{"address":"上海市青浦区沪青平公路1899号B幢102-1商铺","citycode":"021","latitude":"31.166516","longtude":"121.277777","name":"小杨生煎上海虹桥食尚店","telephone":"","shopId":"382279","tag":"","extraInfo":""},{"address":"上海市闵行区龙铭路1025号","citycode":"021","latitude":"31.144659","longtude":"121.384717","name":"小杨生煎上海十尚坊店","telephone":"","shopId":"382289","tag":"","extraInfo":""},{"address":"上海市闵行区陈行公路2688号一层125室","citycode":"021","latitude":"31.094885","longtude":"121.504400","name":"小杨生煎上海浦江华侨城店","telephone":"","shopId":"383159","tag":"","extraInfo":""},{"address":"上海市杨浦区淞沪路8号","citycode":"021","latitude":"31.302213","longtude":"121.515139","name":"小杨生煎上海百联又一城店","telephone":"","shopId":"384269","tag":"","extraInfo":""},{"address":"上海市普陀区白丽路245号一层新邻天地1-110-A铺位","citycode":"021","latitude":"31.280880","longtude":"121.348085","name":"小杨生煎上海桃浦新邻天地店","telephone":"","shopId":"385509","tag":"","extraInfo":""},{"address":"上海市静安区恒通路318号B2层01B","citycode":"021","latitude":"31.242413","longtude":"121.459778","name":"小杨生煎上海凯德星贸店","telephone":"","shopId":"386019","tag":"","extraInfo":""},{"address":"上海市嘉定区城北路358号1F-16A室","citycode":"021","latitude":"31.390210","longtude":"121.237305","name":"小杨生煎上海嘉定日月光店","telephone":"","shopId":"399889","tag":"","extraInfo":""},{"address":"闵行区古北路1699号B2    212、210","citycode":"021","latitude":"31.187819","longtude":"121.402561","name":"小杨生煎上海古北店","telephone":"","shopId":"400179","tag":"","extraInfo":""},{"address":"上海市杨浦区上海五角场万达购物中心室内步行街地下一层B1055号商铺","citycode":"021","latitude":"31.299059","longtude":"121.514158","name":"小杨生煎上海五角场店","telephone":"","shopId":"402709","tag":"","extraInfo":""},{"address":"上海市徐汇区漕宝路33号\u201c徐汇日月光中心\u201d商场B2层12号（部位)","citycode":"021","latitude":"31.168778","longtude":"121.431861","name":"小杨生煎上海漕宝路日月光店","telephone":"","shopId":"406949","tag":"","extraInfo":""},{"address":"上海市宝山区丹霞山路50弄1号地下一层02一41","citycode":"021","latitude":"31.361232","longtude":"121.361900","name":"小杨生煎上海宝山龙湖店","telephone":"","shopId":"408669","tag":"","extraInfo":""},{"address":"上海市浦东新区高科东路777弄1-20号唐镇阳光天地B1楼147号","citycode":"021","latitude":"31.208298","longtude":"121.655325","name":"小杨生煎上海唐镇阳光城店","telephone":"","shopId":"408679","tag":"","extraInfo":""},{"address":"上海市云山路1357号-2商铺","citycode":"021","latitude":"31.243797","longtude":"121.575920","name":"小杨生煎上海上疏永辉店","telephone":"","shopId":"409489","tag":"","extraInfo":""},{"address":"上海市银城中路1幢66号地下一层，101a~16&23单元","citycode":"021","latitude":"31.236745","longtude":"121.504184","name":"小杨生煎上海尚悦湾店","telephone":"","shopId":"409499","tag":"","extraInfo":""},{"address":"上海市杨浦区长阳欧尚路1750号一楼一层YP 2一112号","citycode":"021","latitude":"31.269986","longtude":"121.534962","name":"小杨生煎上海长阳欧尚店","telephone":"","shopId":"415689","tag":"","extraInfo":""},{"address":"上海市闵行区虹梅南路863号","citycode":"021","latitude":"31.124975","longtude":"121.422621","name":"小杨生煎上海万辉国际店","telephone":"","shopId":"415699","tag":"","extraInfo":""},{"address":"上海市闵行区虹井路120弄4号地下一层46.47商铺。小杨生煎","citycode":"021","latitude":"31.176456","longtude":"121.371715","name":"小杨生煎上海新华红星店","telephone":"","shopId":"416209","tag":"","extraInfo":""},{"address":"上海市宝山区真华路1781号A103","citycode":"021","latitude":"31.287960","longtude":"121.411000","name":"小杨生煎上海大华益峰中心店","telephone":"","shopId":"424459","tag":"","extraInfo":""},{"address":"上海市浦东新区临沂路140号1层G32-1F-1-004","citycode":"021","latitude":"31.195191","longtude":"121.512326","name":"小杨生煎上海临沂百联店","telephone":"","shopId":"424469","tag":"","extraInfo":""},{"address":"上海市嘉定区嘉怡路321号一层1层","citycode":"021","latitude":"31.264710","longtude":"121.348441","name":"小杨生煎上海嘉尚坊店","telephone":"","shopId":"424499","tag":"","extraInfo":""},{"address":"上海市徐汇区淮海西路443号555号汇京国际广场B1层B_4室","citycode":"021","latitude":"31.195952","longtude":"121.423426","name":"小杨生煎上海汇京国际广场店","telephone":"","shopId":"424509","tag":"","extraInfo":""},{"address":"上海青浦区盈港路1666弄36号地下二楼富绅时代广场","citycode":"021","latitude":"31.161069","longtude":"121.106239","name":"小杨生煎上海青浦富绅时代店","telephone":"","shopId":"429679","tag":"","extraInfo":""},{"address":"上海市闵行区颛兴东路1570号4楼4030号","citycode":"021","latitude":"31.070912","longtude":"121.408347","name":"小杨生煎上海颛桥万达店","telephone":"","shopId":"429689","tag":"","extraInfo":""},{"address":"上海市浦东新区云台路800号129，130室，板泉路1267号一层","citycode":"021","latitude":"31.161737","longtude":"121.508175","name":"小杨生煎上海亿丰时代广场店","telephone":"","shopId":"431159","tag":"","extraInfo":""},{"address":"上海市闵行区都市路3759号地下二层12SHMHJDL-1009A","citycode":"021","latitude":"31.085371","longtude":"121.398967","name":"小杨生煎上海龙盛欧尚店","telephone":"","shopId":"431169","tag":"","extraInfo":""},{"address":"上海市南汇区惠南镇南门大街18L1004（1F一F一4A）","citycode":"021","latitude":"31.041616","longtude":"121.756664","name":"小杨生煎上海惠南乐购店","telephone":"","shopId":"431849","tag":"","extraInfo":""},{"address":"上海市松江区莘松路1266号亚乐城物业一楼126，127，128室","citycode":"021","latitude":"31.097000","longtude":"121.349750","name":"小杨生煎上海亚繁亚乐城店","telephone":"","shopId":"431879","tag":"","extraInfo":""},{"address":"上海市静安区沪太路1111弄10号地下一层B107一1室","citycode":"021","latitude":"31.276784","longtude":"121.428827","name":"小杨生煎上海静安大融城店","telephone":"","shopId":"434739","tag":"","extraInfo":""}]}